{"log":"Api is running! 13-09-2019 17h09m21","card":{"list":[{"number":"335","address":"R. Francisco Araújo Chaves","neighborhood":"Jardim Europa","name":"Francielle 22","city":"Jandira","state":"São Paulo","_id":"mkc6tck04sqhkm","latitude":"-23.542260","longitude":"-46.908453"},{"number":"1656","address":"Av Carolina","neighborhood":"Fila Sao Francisco","name":"Zé","city":"Jandira","state":"São Paulo","_id":"mkc85ok0d6guh8","latitude":-23.5393397,"longitude":-46.9162605},{"latitude":-23.4998629,"longitude":-46.8543619,"name":"Jose Trabalho","number":"160","neighborhood":"Alphaville","address":"Alameda Rio Negro","city":"Barueri","state":"SP","_id":"a30td5sk0ifzsgg"},{"name":"Trabalho da Fran (Ituran Brasil)","number":"1601 ","neighborhood":"Chácara Santo Antônio (Zona Sul)","address":" R. Verbo Divino, ","city":"SP","state":"SP","latitude":"-23.5733176","longitude":"-46.9555413","_id":"a30td5sk0ig2jv1"}]},"itinerary":{"list":[{"date":"2019-09-04T05:19:41.917Z","cards":[],"removedCards":[],"_id":"mkc74ck04tba73"},{"date":"2019-09-12T18:41:44.533Z","cards":["mkc85ok0d6guh8","mkc6tck04sqhkm"],"removedCards":["mkc6tck04sqhkm","mkc85ok0d6guh8","mkc85ok0d6guh8","mkc6tck04sqhkm"],"_id":"a30t7e8k0h1hj6e"},{"date":"2019-09-13T03:00:32.540Z","cards":["mkc85ok0d6guh8","mkc6tck04sqhkm","a30td5sk0ig2jv1","a30td5sk0ifzsgg"],"removedCards":[],"_id":"mkc1ekk0hjazt1"}]}}